{
 "category": "按摩", 
 "rating": 4.0, 
 "lat": "13.702854", 
 "name": "克里普索人妖秀", 
 "phone": "+66-2-68814157", 
 "city_id": "1", 
 "avgprice": 181, 
 "office_hours": "CalypsoCabaretLadyboyShow", 
 "shop_id": 1000, 
 "address": "AsiatiqueTheRiverfront(Warehouseno.3);2194Charoenkrung72-76Rd", 
 "city_name": "曼谷", 
 "lng": "100.502714", 
 "category_id": 1
}
{
 "category": "按摩", 
 "rating": 4.0, 
 "lat": "13.7278956", 
 "name": "曼谷安东尼人妖秀", 
 "phone": "Telephone", 
 "city_id": "1", 
 "avgprice": 96, 
 "office_hours": "晚19：30－21：30", 
 "shop_id": 1001, 
 "address": "拉差达披色路18巷第252,5号", 
 "city_name": "曼谷", 
 "lng": "100.5241235", 
 "category_id": 1
}
{
 "category": "按摩", 
 "rating": 3.5, 
 "lat": "13.785448", 
 "name": "金东尼人妖秀", 
 "phone": "+66-2-6928206", 
 "city_id": "1", 
 "avgprice": 75, 
 "office_hours": "GoldenDomeCabaretShow", 
 "shop_id": 1002, 
 "address": "汇权拉查达比瑟区18巷252/5号", 
 "city_name": "曼谷", 
 "lng": "100.577266", 
 "category_id": 1
}
{
 "category": "按摩", 
 "rating": 3.5, 
 "lat": "13.738989", 
 "name": "曼波人妖秀", 
 "phone": "+66-2-2595715", 
 "city_id": "1", 
 "avgprice": null, 
 "office_hours": "MamboCabaretShow", 
 "shop_id": 1003, 
 "address": "59/28Sathu-phararam3Rd.", 
 "city_name": "曼谷", 
 "lng": "100.563884", 
 "category_id": 1
}
{
 "category": "按摩", 
 "rating": 3.5, 
 "lat": "13.752302", 
 "name": "曼谷人妖秀", 
 "phone": "+66-2-2150571", 
 "city_id": "1", 
 "avgprice": 103, 
 "office_hours": "PlayhouseTheatreCabaret", 
 "shop_id": 1004, 
 "address": "296PhayathaiRoad,AsiaHotel,Bangkok,10400,Thailand", 
 "city_name": "曼谷", 
 "lng": "100.531307", 
 "category_id": 1
}
{
 "category": "按摩", 
 "rating": 3.5, 
 "lat": "13.682515", 
 "name": "曼波人妖秀", 
 "phone": "+66-2-22947381", 
 "city_id": "1", 
 "avgprice": null, 
 "office_hours": "20:15-23:00", 
 "shop_id": 1005, 
 "address": "59/28,YannawaRd,ChongNonsi,YanNawa", 
 "city_name": "曼谷", 
 "lng": "100.539697", 
 "category_id": 1
}
{
 "category": "按摩", 
 "rating": 3.5, 
 "lat": "13.732677", 
 "name": "曼谷明星人妖歌舞团", 
 "phone": "Telephone", 
 "city_id": "1", 
 "avgprice": null, 
 "office_hours": "尚无营业时间", 
 "shop_id": 1006, 
 "address": "曼谷包卖场店对面", 
 "city_name": "曼谷", 
 "lng": "100.60739", 
 "category_id": 1
}
{
 "category": "按摩", 
 "rating": 3.0, 
 "lat": "13.724302", 
 "name": "曼谷明星人妖秀", 
 "phone": "Telephone", 
 "city_id": "1", 
 "avgprice": null, 
 "office_hours": "尚无营业时间", 
 "shop_id": 1007, 
 "address": "KhlongToeiKhlongTanBangkok10110Thailand", 
 "city_name": "曼谷", 
 "lng": "100.571806", 
 "category_id": 1
}
{
 "category": "按摩", 
 "rating": 3.0, 
 "lat": "13.78441", 
 "name": "曼谷美味王酒家", 
 "phone": "Telephone", 
 "city_id": "1", 
 "avgprice": null, 
 "office_hours": "尚无营业时间", 
 "shop_id": 1008, 
 "address": "口力差达18巷金东妮人妖对面巷", 
 "city_name": "曼谷", 
 "lng": "100.5764", 
 "category_id": 1
}
{
 "category": "按摩", 
 "rating": 2.0, 
 "lat": "13.78427", 
 "name": "北京酒家", 
 "phone": "Telephone", 
 "city_id": "1", 
 "avgprice": null, 
 "office_hours": "尚无营业时间", 
 "shop_id": 1009, 
 "address": "金东尼人妖秀不远", 
 "city_name": "曼谷", 
 "lng": "100.57887", 
 "category_id": 1
}
{
 "category": "按摩", 
 "rating": 5.0, 
 "lat": "13.704181", 
 "name": "新河畔夜市", 
 "phone": "+66-2-1084488", 
 "city_id": "1", 
 "avgprice": null, 
 "office_hours": "ASIATIQUE", 
 "shop_id": 1010, 
 "address": "WatPrayakrai地区Charoenkrung路2194号", 
 "city_name": "曼谷", 
 "lng": "100.506089", 
 "category_id": 1
}
{
 "category": "按摩", 
 "rating": 4.0, 
 "lat": "13.702854", 
 "name": "克里普索人妖秀", 
 "phone": "+66-2-68814157", 
 "city_id": "1", 
 "avgprice": 181, 
 "office_hours": "CalypsoCabaretLadyboyShow", 
 "shop_id": 1011, 
 "address": "AsiatiqueTheRiverfront(Warehouseno.3);2194Charoenkrung72-76Rd", 
 "city_name": "曼谷", 
 "lng": "100.502714", 
 "category_id": 1
}
{
 "category": "按摩", 
 "rating": 4.0, 
 "lat": "13.7278956", 
 "name": "曼谷安东尼人妖秀", 
 "phone": "Telephone", 
 "city_id": "1", 
 "avgprice": 96, 
 "office_hours": "晚19：30－21：30", 
 "shop_id": 1012, 
 "address": "拉差达披色路18巷第252,5号", 
 "city_name": "曼谷", 
 "lng": "100.5241235", 
 "category_id": 1
}
{
 "category": "按摩", 
 "rating": 3.5, 
 "lat": "13.785448", 
 "name": "金东尼人妖秀", 
 "phone": "+66-2-6928206", 
 "city_id": "1", 
 "avgprice": 75, 
 "office_hours": "GoldenDomeCabaretShow", 
 "shop_id": 1013, 
 "address": "汇权拉查达比瑟区18巷252/5号", 
 "city_name": "曼谷", 
 "lng": "100.577266", 
 "category_id": 1
}
{
 "category": "按摩", 
 "rating": 3.5, 
 "lat": "13.738989", 
 "name": "曼波人妖秀", 
 "phone": "+66-2-2595715", 
 "city_id": "1", 
 "avgprice": null, 
 "office_hours": "MamboCabaretShow", 
 "shop_id": 1014, 
 "address": "59/28Sathu-phararam3Rd.", 
 "city_name": "曼谷", 
 "lng": "100.563884", 
 "category_id": 1
}
{
 "category": "按摩", 
 "rating": 3.5, 
 "lat": "13.752302", 
 "name": "曼谷人妖秀", 
 "phone": "+66-2-2150571", 
 "city_id": "1", 
 "avgprice": 103, 
 "office_hours": "PlayhouseTheatreCabaret", 
 "shop_id": 1015, 
 "address": "296PhayathaiRoad,AsiaHotel,Bangkok,10400,Thailand", 
 "city_name": "曼谷", 
 "lng": "100.531307", 
 "category_id": 1
}
{
 "category": "按摩", 
 "rating": 3.5, 
 "lat": "13.682515", 
 "name": "曼波人妖秀", 
 "phone": "+66-2-22947381", 
 "city_id": "1", 
 "avgprice": null, 
 "office_hours": "20:15-23:00", 
 "shop_id": 1016, 
 "address": "59/28,YannawaRd,ChongNonsi,YanNawa", 
 "city_name": "曼谷", 
 "lng": "100.539697", 
 "category_id": 1
}
{
 "category": "按摩", 
 "rating": 3.5, 
 "lat": "13.732677", 
 "name": "曼谷明星人妖歌舞团", 
 "phone": "Telephone", 
 "city_id": "1", 
 "avgprice": null, 
 "office_hours": "尚无营业时间", 
 "shop_id": 1017, 
 "address": "曼谷包卖场店对面", 
 "city_name": "曼谷", 
 "lng": "100.60739", 
 "category_id": 1
}
{
 "category": "按摩", 
 "rating": 3.0, 
 "lat": "13.724302", 
 "name": "曼谷明星人妖秀", 
 "phone": "Telephone", 
 "city_id": "1", 
 "avgprice": null, 
 "office_hours": "尚无营业时间", 
 "shop_id": 1018, 
 "address": "KhlongToeiKhlongTanBangkok10110Thailand", 
 "city_name": "曼谷", 
 "lng": "100.571806", 
 "category_id": 1
}
{
 "category": "按摩", 
 "rating": 3.0, 
 "lat": "13.78441", 
 "name": "曼谷美味王酒家", 
 "phone": "Telephone", 
 "city_id": "1", 
 "avgprice": null, 
 "office_hours": "尚无营业时间", 
 "shop_id": 1019, 
 "address": "口力差达18巷金东妮人妖对面巷", 
 "city_name": "曼谷", 
 "lng": "100.5764", 
 "category_id": 1
}
{
 "category": "按摩", 
 "rating": 2.0, 
 "lat": "13.78427", 
 "name": "北京酒家", 
 "phone": "Telephone", 
 "city_id": "1", 
 "avgprice": null, 
 "office_hours": "尚无营业时间", 
 "shop_id": 1020, 
 "address": "金东尼人妖秀不远", 
 "city_name": "曼谷", 
 "lng": "100.57887", 
 "category_id": 1
}
{
 "category": "按摩", 
 "rating": 5.0, 
 "lat": "13.704181", 
 "name": "新河畔夜市", 
 "phone": "+66-2-1084488", 
 "city_id": "1", 
 "avgprice": null, 
 "office_hours": "ASIATIQUE", 
 "shop_id": 1021, 
 "address": "WatPrayakrai地区Charoenkrung路2194号", 
 "city_name": "曼谷", 
 "lng": "100.506089", 
 "category_id": 1
}
